349 -45 22.2298 1011.69 50.0206 63334 26.6046 1011.13 17.6398 39.7734 370216 $GNGGA,194803.000,5246.5603,N,00026.3597,E,1,9,1.25,36.9,M,47.0,M,,*7C $GNRMC,194803.000,A,5246.5603,N,00026.3597,E,0.76,210.56,070325,,,A*7C -0.87697 1.46321 9.67658 -0.00335976 -0.00641408 0.00595593
350 -45 22.2323 1011.69 50.021 63665 26.6001 1011.12 17.7244 39.7729 368972 $GNGGA,194804.000,5246.5603,N,00026.3596,E,1,9,1.25,36.9,M,47.0,M,,*7A $GNRMC,194804.000,A,5246.5603,N,00026.3596,E,0.57,210.56,070325,,,A*79 -0.868595 1.46441 9.69213 -0.00397062 -0.00794125 0.0065668
351 -45 22.2343 1011.69 49.997 63665 .13 15 1011.13 17.6398 39.7913 369386 $GNGGA,194805.000,5246.5601,N,00026.3595,E,1,9,1.25,36.9,M,47.0,M,,*7A $GNRMC,194805.000,A,5246.5601,N,00026.3595,E,0.77,218.79,070325,,,A*7E -0.868595 1.45244 9.68615 -0.00366519 -0.00702495 0.00503964
352 -45 22.2329 1011.7 49.9847 63194 26.6056 1011.14 17.5658 39.7973 367736 $GNGGA,194807.000,5246.5599,N,00026.3592,E,1,9,1.25,36.5,M,47.0,M,,*71 $GNRMC,194807.000,A,5246.5599,N,00026.3592,E,0.66,222.16,070325,,,A*79 -0.87338 1.46441 9.68136 -0.00473421 -0.00671952 0.00580322
353 -46 22.2349 1011.69 49.991 63288 26.6056 1011.15 17.5236 39.7854 370633 $GNGGA,194808.000,5246.5600,N,00026.3593,E,1,9,1.25,36.4,M,47.0,M,,*7D $GNRMC,194808.000,A,5246.5600,N,00026.3593,E,0.24,222.16,070325,,,A*72 -0.878166 1.468 9.69452 -0.00397062 -0.00671952 0.00595593
354 -46 22.2368 1011.69 49.9731 63618 26.6103 1011.14 17.5764 39.8156 369386 $GNGGA,194809.000,5246.5595,N,00026.3587,E,1,9,1.25,36.4,M,47.0,M,,*76 $GNRMC,194809.000,A,5246.5595,N,00026.3587,E,0.76,217.39,070325,,,A*75 -0.865005 1.46201 9.68016 -0.00442877 -0.0074831 0.00580322
355 -46 22.2394 1011.69 49.9673 63476 26.6107 1011.14 17.5975 39.8157 371889 $GNGGA,194810.000,5246.5593,N,00026.3585,E,1,9,1.25,36.4,M,47.0,M,,*7A $GNRMC,194810.000,A,5246.5593,N,00026.3585,E,1.26,234.04,070325,,,A*72 -0.870988 1.46441 9.68495 -0.00488692 -0.00702495 0.00641408
357 -46 22.2386 1011.69 49.9491 63476 26.7273 1011.15 17.5447 39.7629 371469 $GNGGA,194813.000,5246.5583,N,00026.3569,E,1,9,1.25,35.4,M,47.0,M,,*79 $GNRMC,194813.000,A,5246.5583,N,00026.3569,E,1.63,221.29,070325,,,A*78 -0.866202 1.45603 9.68734 -0.00519235 -0.00778853 0.00610865
358 -45 22.2402 1011.7 49.9553 63713 26.6923 1011.14 17.5658 39.7472 371051 $GNGGA,194814.000,5246.5580,N,00026.3565,E,1,10,1.13,35.1,M,47.0,M,,*49 $GNRMC,194814.000,A,5246.5580,N,00026.3565,E,1.33,214.01,070325,,,A*79 -0.879363 1.45005 9.68615 -0.00580322 -0.0065668 0.0056505
359 -44 22.2431 1011.7 49.9315 63760 26.6694 1011.14 17.6292 39.7447 371889 $GNGGA,194815.000,5246.5579,N,00026.3564,E,1,10,1.13,34.9,M,47.0,M,,*46 $GNRMC,194815.000,A,5246.5579,N,00026.3564,E,0.98,208.82,070325,,,A*79 -1.05763 1.99203 9.90987 0.0649044 0.218232 1.06642
360 -42 22.2456 1011.7 49.9197 63618 7.7455 39.74954 17.6187 39.7321 371051 $GNGGA,194816.000,5246.5578,N,00026.3563,E,1,10,1.13,34.8,M,47.0,M,,*42 $GNRMC,194816.000,A,5246.5578,N,00026.3563,E,0.79,206.77,070325,,,A*77 -2.60459 3.08076 10.6241 -0.401491 0.0481056 0.317497
361 -47 22.2452 1011.71 49.9136 63570 26.6464 1011.11 17.8723 39.7898 371469 $GNGGA,194818.000,5246.5574,N,00026.3562,E,1,10,1.13,34.5,M,47.0,M,,*4C $GNRMC,194818.000,A,5246.5574,N,00026.3562,E,0.33,202.51,070325,,,A*7A -2.61894 0.141177 11.3743 0.282525 -0.372628 0.735329
362 -44 22.2468 1011.7 49.9077 63760 26.64 1011.1 17.9569 39.8307 368972 $GNGGA,194819.000,5246.5572,N,00026.3559,E,1,10,1.13,34.5,M,47.0,M,,*43 $GNRMC,194819.000,A,5246.5572,N,00026.3559,E,0.67,214.59,070325,,,A*7B 0.0191426 -5.41257 10.5105 0.172875 -0.573755 -0.680198
363 -45 22.2487 1011.69 49.908 63713 26.6368 1011.09 18.0203 39.8602 368559 $GNGGA,194820.000,5246.5573,N,00026.3559,E,1,10,1.13,34.5,M,47.0,M,,*48 $GNRMC,194820.000,A,5246.5573,N,00026.3559,E,0.49,214.59,070325,,,A*7C -1.53141 3.35593 13.4465 0.676228 -0.305738 0.495717
364 -48 22.2497 1011.7 49.896 63808  18.0309 39.9134 371366 39.8961 370216 $GNGGA,194821.000,5246.5569,N,00026.3558,E,1,10,1.13,34.5,M,47.0,M,,*43 $GNRMC,194821.000,A,5246.5569,N,00026.3558,E,0.82,210.11,070325,,,A*78 0.324227 -5.79183 11.2403 0.0108429 -0.227089 -0.471741
365 -45 22.2431 1011.69 49.8831 62914 26.7812 1011.08 18.0837 39.9711 372730 $GNGGA,194823.000,5246.5563,N,00026.3551,E,1,10,1.13,34.5,M,47.0,M,,*42 $GNRMC,194823.000,A,5246.5563,N,00026.3551,E,1.32,225.61,070325,,,A*72 -5.37547 -4.48295 9.7699 -1.28389 -0.550542 -3.5647
366 -53 22.2446 1011.69 49.859 63241 26.7868 1011.08 18.0626 39.9539 371889 $GNGGA,194824.000,5246.5567,N,00026.3553,E,1,10,1.13,34.4,M,47.0,M,,*42 $GNRMC,194824.000,A,5246.5567,N,00026.3553,E,0.67,236.89,070325,,,A*76 -0.835095 -0.771685 10.5571 0.073762 0.175471 0.843605
367 -48 22.2482 1011.69 49.8595 63618 26.7349 1011.1 17.9358 39.9542 371889 $GNGGA,194825.000,5246.5567,N,00026.3554,E,1,10,1.13,34.4,M,47.0,M,,*44 $GNRMC,194825.000,A,5246.5567,N,00026.3554,E,0.45,236.89,070325,,,A*70 -2.00279 -2.38445 9.11546 -0.0458149 0.0552833 0.189063
368 -46 22.2493 1011.68 49.8536 64000 7.7349 39.9957 377.7878 39.9865 372309 $GNGGA,194826.000,5246.5565,N,00026.3556,E,1,10,1.13,34.4,M,47.0,M,,*47 $GNRMC,194826.000,A,5246.5565,N,00026.3556,E,0.49,236.89,070325,,,A*7F -1.9681 -2.62373 9.46242 -0.184634 0.0398589 0.250607
369 -48 22.2487 1011.68 49.8475 63334 26.6685 1011.13 17.7138 40.0303 372730 $GNGGA,194828.000,5246.5566,N,00026.3563,E,1,10,1.13,34.3,M,47.0,M,,*4B $GNRMC,194828.000,A,5246.5566,N,00026.3563,E,0.17,236.89,070325,,,A*7F -0.981057 -2.24806 9.5701 0.0291688 -0.0609338 -0.0146608
371 -49 22.2507 1011.68 49.8477 63952 26.6527 1011.12 17.7138 40.0346 374000 $GNGGA,194830.000,5246.5568,N,00026.3570,E,1,10,1.13,34.2,M,47.0,M,,*4F $GNRMC,194830.000,A,5246.5568,N,00026.3570,E,0.45,236.89,070325,,,A*7D -0.617348 -3.09272 9.35833 -0.292757 -0.308181 -0.275958
372 -45 22.2515 1011.68 49.8478 63618 17.6864 1011.13 17.7032 40.0279 374000 $GNGGA,194831.000,5246.5565,N,00026.3571,E,1,10,1.13,34.2,M,47.0,M,,*42 $GNRMC,194831.000,A,5246.5565,N,00026.3571,E,0.50,236.89,070325,,,A*74 -1.05643 -2.4012 9.50908 0.0320704 -0.0218384 0.0186314
373 -44 22.2503 1011.68 49.8295 63476 26.647 1011.13 17.661 40.022 371889 $GNGGA,194833.000,5246.5569,N,00026.3567,E,1,10,1.13,34.3,M,47.0,M,,*4A $GNRMC,194833.000,A,5246.5569,N,00026.3567,E,0.65,357.51,070325,,,A*78 -1.23948 -2.75892 9.80579 0.207847 0.162032 -0.0308487
374 -50 22.2519 1011.69 49.8176 63713 26.6507 1011.12 17.7138 40.0224 372309 $GNGGA,194834.000,5246.5568,N,00026.3566,E,1,10,1.13,34.4,M,47.0,M,,*4A $GNRMC,194834.000,A,5246.5568,N,00026.3566,E,0.61,236.86,070325,,,A*77 -1.08275 -1.94178 9.74118 0.0951423 -0.02474 -0.0694859
375 -51 22.2528 1011.68 49.8056 64144 26.6527 1011.13 17.6927 40.0286 372309 $GNGGA,194835.000,5246.5567,N,00026.3563,E,1,10,1.13,34.4,M,47.0,M,,*41 $GNRMC,194835.000,A,5246.5567,N,00026.3563,E,0.66,217.16,070325,,,A*71 -0.911665 0.838684 10.8048 0.800692 -0.0461203 -0.177456
376 -48 22.254 1011.68 49.7816 63952 3 17.6292 40.02927.6398 40.0348 370216 $GNGGA,194836.000,5246.5566,N,00026.3562,E,1,10,1.13,34.3,M,47.0,M,,*45 $GNRMC,194836.000,A,5246.5566,N,00026.3562,E,0.67,159.29,070325,,,A*76 -0.378066 1.17607 9.94936 0.0503964 0.0271835 0.00381791
377 -52 22.2509 1011.68 49.7449 63570 26.6597 1011.14 17.587 40.0234 372309 $GNGGA,194838.000,5246.5567,N,00026.3564,E,1,10,1.13,34.3,M,47.0,M,,*4C $GNRMC,194838.000,A,5246.5567,N,00026.3564,E,0.16,159.29,070325,,,A*79 -0.451047 1.30768 9.74956 -0.0056505 -0.00610865 0.00610865
378 -50 22.2513 1011.69 49.7389 63760 26.8058 1011.14 17.5975 40.0691 373153 $GNGGA,194839.000,5246.5567,N,00026.3566,E,1,10,1.13,34.2,M,47.0,M,,*4E $GNRMC,194839.000,A,5246.5567,N,00026.3566,E,0.15,159.29,070325,,,A*79 -0.448654 1.2993 9.73281 -0.00580322 -0.00626137 0.00626137
379 -51 22.2525 1011.68 49.7269 63760 26.8109 1011.15 17.5236 40.0459 374000 $GNGGA,194840.000,5246.5566,N,00026.3565,E,1,10,1.13,34.2,M,47.0,M,,*42 $GNRMC,194840.000,A,5246.5566,N,00026.3565,E,0.38,159.29,070325,,,A*7A -0.463011 1.28614 9.74118 -0.00442877 -0.00671952 0.00595593
380 -51 22.2538 1011.67 49.715 63760 26.7609 1011.13 17.661 40.0464 372730 $GNGGA,194841.000,5246.5567,N,00026.3565,E,1,10,1.13,34.3,M,47.0,M,,*43 $GNRMC,194841.000,A,5246.5567,N,00026.3565,E,0.19,159.29,070325,,,A*79 -0.458226 1.3017 9.74717 -0.00442877 -0.00626137 0.0056505
382 -51 22.2515 1011.68 49.6724 63476 26.6986 1011.13 17.661 40.0574 374425 $GNGGA,194844.000,5246.5567,N,00026.3566,E,1,9,1.16,34.5,M,47.0,M,,*7E $GNRMC,194844.000,A,5246.5567,N,00026.3566,E,0.08,37.47,070325,,,A*4E -0.458226 1.30648 9.74956 -0.00503964 -0.0065668 0.0056505
383 -51 22.2523 1011.68 49.6665 64144 26.6925 1011.14 17.6081 40.0746 372309 $GNGGA,194845.000,5246.5566,N,00026.3566,E,1,9,1.16,34.5,M,47.0,M,,*7E $GNRMC,194845.000,A,5246.5566,N,00026.3566,E,0.16,37.47,070325,,,A*41 -0.458226 1.29332 9.74238 -0.00412334 -0.00702495 0.00549779
384 -51 22.2528 1011.68 49.6605 64096 26.6923 1011.14 17.587 40.0627 372309 $GNGGA,194846.000,5246.5567,N,00026.3567,E,1,9,1.16,34.6,M,47.0,M,,*7E $GNRMC,194846.000,A,5246.5567,N,00026.3567,E,0.59,110.66,070325,,,A*7E -0.464208 1.29452 9.74597 -0.00503964 -0.00717767 0.00595593
385 -51 22.254 1011.69 49.6667 64192 4 17.5764 40.13 17.6504 40.0679 371469 $GNGGA,194847.000,5246.5568,N,00026.3570,E,1,9,1.16,34.4,M,47.0,M,,*74 $GNRMC,194847.000,A,5246.5568,N,00026.3570,E,0.88,50.62,070325,,,A*4B -0.47019 1.2993 9.74238 -0.00397062 -0.00671952 0.00580322
386 -51 22.2525 1011.69 49.6544 63570 26.6884 1011.15 17.4707 40.0504 372730 $GNGGA,194849.000,5246.5569,N,00026.3572,E,1,9,1.16,34.2,M,47.0,M,,*7F $GNRMC,194849.000,A,5246.5569,N,00026.3572,E,0.39,50.62,070325,,,A*4C -0.467797 1.29571 9.74357 -0.00458149 -0.0065668 0.00595593
387 -52 22.2528 1011.69 49.6545 63952 26.6948 1011.16 17.4073 40.0451 371469 $GNGGA,194850.000,5246.5566,N,00026.3570,E,1,9,1.16,34.3,M,47.0,M,,*7B $GNRMC,194850.000,A,5246.5566,N,00026.3570,E,0.12,50.62,070325,,,A*40 -0.457029 1.29691 9.75673 -0.00442877 -0.00641408 0.00626137
388 -51 22.2528 1011.7 49.6605 64096 26.6913 1011.16 17.4496 40.0388 371889 $GNGGA,194851.000,5246.5567,N,00026.3571,E,1,9,1.16,34.3,M,47.0,M,,*7A $GNRMC,194851.000,A,5246.5567,N,00026.3571,E,0.10,50.62,070325,,,A*43 -0.457029 1.2993 9.73759 -0.00427606 -0.00671952 0.00595593
389 -51 22.2544 1011.69 49.6849 63856 16 17.4496 1.15 17.4919 40.0274 370633 $GNGGA,194852.000,5246.5566,N,00026.3570,E,1,9,1.16,34.3,M,47.0,M,,*79 $GNRMC,194852.000,A,5246.5566,N,00026.3570,E,0.11,50.62,070325,,,A*41 -0.463011 1.29332 9.73759 -0.00473421 -0.00671952 0.0065668
390 -51 22.253 1011.7 49.6968 63665 26.698 1011.16 17.4179 39.9918 372730 $GNGGA,194854.000,5246.5568,N,00026.3572,E,1,9,1.16,34.3,M,47.0,M,,*73 $GNRMC,194854.000,A,5246.5568,N,00026.3572,E,0.18,50.62,070325,,,A*42 -0.459422 1.29571 9.74238 -0.00503964 -0.00671952 0.00549779
391 -52 22.254 1011.7 49.715 63665 26.6995 1011.16 17.4496 39.9801 372730 $GNGGA,194855.000,5246.5567,N,00026.3571,E,1,9,1.16,34.3,M,47.0,M,,*7E $GNRMC,194855.000,A,5246.5567,N,00026.3571,E,0.11,50.62,070325,,,A*46 -0.467797 1.28614 9.74597 -0.00412334 -0.00717767 0.00641408
392 -52 22.2566 1011.7 49.7335 63760 26.8478 1011.16 17.3862 39.9962 375279 $GNGGA,194856.000,5246.5567,N,00026.3571,E,1,9,1.16,34.2,M,47.0,M,,*7C $GNRMC,194856.000,A,5246.5567,N,00026.3571,E,0.10,50.62,070325,,,A*44 -0.461815 1.29811 9.74118 -0.00381791 -0.00717767 0.00534507
393 -52 22.2589 1011.7 49.7398 63856 26.8585 1011.16 17.4284 39.9379 376997 $GNGGA,194857.000,5246.5567,N,00026.3571,E,1,9,1.16,34.2,M,47.0,M,,*7D $GNRMC,194857.000,A,5246.5567,N,00026.3571,E,0.14,50.62,070325,,,A*41 -0.467797 1.29332 9.74357 -0.00427606 -0.00702495 0.00549779
394 -52 22.2607 1011.7 49.7461 64048 16 1095 1011.16 17.3967 39.9027 376997 $GNGGA,194858.000,5246.5568,N,00026.3571,E,1,9,1.16,34.2,M,47.0,M,,*7D $GNRMC,194858.000,A,5246.5568,N,00026.3571,E,0.16,50.62,070325,,,A*43 -0.472583 1.3005 9.73999 -0.00442877 -0.00641408 0.00626137
395 -51 22.2566 1011.7 49.7456 63713 26.7538 1011.16 17.4073 39.855 376997 $GNGGA,194900.000,5246.5566,N,00026.3571,E,1,9,1.16,34.2,M,47.0,M,,*7F $GNRMC,194900.000,A,5246.5566,N,00026.3571,E,0.12,50.62,070325,,,A*45 -0.460618 1.29811 9.74717 -0.00458149 -0.00687223 0.00610865
396 -52 22.2581 1011.7 49.77 63760 26.7431 1011.16 17.4073 39.83 375707 $GNGGA,194901.000,5246.5568,N,00026.3571,E,1,9,1.16,34.3,M,47.0,M,,*71 $GNRMC,194901.000,A,5246.5568,N,00026.3571,E,0.51,50.62,070325,,,A*4D -0.47019 1.2993 9.74956 -0.00427606 -0.00671952 0.0056505
397 -51 22.2595 1011.7 49.7883 64192 26.738 1011.16 17.4073 39.8236 373153 $GNGGA,194902.000,5246.5570,N,00026.3574,E,1,9,1.16,34.2,M,47.0,M,,*7F $GNRMC,194902.000,A,5246.5570,N,00026.3574,E,0.81,55.40,070325,,,A*4A -0.468993 1.2993 9.75076 -0.00427606 -0.00626137 0.00580322
398 -52 22.2611 1011.7 49.8067 64096 16 17.4179 39.6 17.4284 39.8114 374000 $GNGGA,194903.000,5246.5571,N,00026.3577,E,1,9,1.16,34.0,M,47.0,M,,*7E $GNRMC,194903.000,A,5246.5571,N,00026.3577,E,0.42,55.40,070325,,,A*46 -0.466601 1.29691 9.73759 -0.00473421 -0.00671952 0.0065668
399 -51 22.2601 1011.7 49.8005 63570 26.7353 1011.16 17.4601 39.7935 373576 $GNGGA,194905.000,5246.5573,N,00026.3578,E,1,9,1.16,34.0,M,47.0,M,,*75 $GNRMC,194905.000,A,5246.5573,N,00026.3578,E,0.23,55.40,070325,,,A*4A -0.455833 1.28973 9.74477 -0.00488692 -0.00733038 0.00488692
400 -52 22.262 1011.7 49.8068 63808 26.7353 1011.15 17.4707 39.7876 373576 $GNGGA,194906.000,5246.5573,N,00026.3577,E,1,9,1.16,34.0,M,47.0,M,,*79 $GNRMC,194906.000,A,5246.5573,N,00026.3577,E,0.05,55.40,070325,,,A*42 -0.476172 1.30528 9.74118 -0.00427606 -0.00671952 0.00671952
401 -51 22.2638 1011.69 49.7949 64192 26.7353 1011.15 17.5024 39.7757 374851 $GNGGA,194907.000,5246.5574,N,00026.3578,E,1,9,1.16,33.9,M,47.0,M,,*7E $GNRMC,194907.000,A,5246.5574,N,00026.3578,E,0.64,22.94,070325,,,A*45 -0.472583 1.3005 9.74836 -0.00427606 -0.00687223 0.00626137
402 -52 22.2661 1011.69 49.765 64096 17.5341 39.15 17.4813 39.7524 374425 $GNGGA,194908.000,5246.5576,N,00026.3579,E,1,9,1.16,34.0,M,47.0,M,,*7C $GNRMC,194908.000,A,5246.5576,N,00026.3579,E,0.61,2.32,070325,,,A*72 -0.464208 1.29212 9.74477 -0.00473421 -0.0074831 0.00641408
403 -55 22.2642 1011.7 49.7587 63760 26.7466 1011.15 17.5447 39.7174 374000 $GNGGA,194910.000,5246.5576,N,00026.3579,E,1,9,1.16,34.2,M,47.0,M,,*77 $GNRMC,194910.000,A,5246.5576,N,00026.3579,E,0.27,2.32,070325,,,A*79 -0.465404 1.29093 9.75554 -0.00458149 -0.00702495 0.00534507
404 -48 22.2657 1011.7 49.7528 63713 26.7501 1011.14 17.5553 39.7059 375707 $GNGGA,194911.000,5246.5577,N,00026.3578,E,1,9,1.16,34.4,M,47.0,M,,*70 $GNRMC,194911.000,A,5246.5577,N,00026.3578,E,0.30,2.32,070325,,,A*7E -0.459422 1.3005 9.74717 -0.00442877 -0.00687223 0.00610865
405 -54 22.2683 1011.7 49.7471 64240 26.7573 1011.14 17.5764 39.6889 376566 $GNGGA,194912.000,5246.5577,N,00026.3579,E,1,9,1.16,34.4,M,47.0,M,,*72 $GNRMC,194912.000,A,5246.5577,N,00026.3579,E,0.26,2.32,070325,,,A*7B -0.47019 1.29571 9.74836 -0.00442877 -0.00626137 0.0056505
406 -52 22.271 1011.7 49.7414 64144 26.9073 1011.16 17.4496 39.7051 378795 $GNGGA,194913.000,5246.5577,N,00026.3580,E,1,9,1.16,34.5,M,47.0,M,,*74 $GNRMC,194913.000,A,5246.5577,N,00026.3580,E,0.24,2.32,070325,,,A*7E -0.464208 1.28255 9.74238 -0.00335976 -0.00595593 0.00626137
407 -47 22.2734 1011.7 49.7175 64483 4 17.5553 39.5819 37742939.6466 381385 $GNGGA,194914.000,5246.5576,N,00026.3579,E,1,9,1.16,34.5,M,47.0,M,,*74 $GNRMC,194914.000,A,5246.5576,N,00026.3579,E,0.25,2.32,070325,,,A*7F -0.468993 1.3005 9.74238 -0.00381791 -0.00794125 0.00610865
408 -50 22.273 1011.7 49.7053 63856 26.8319 1011.15 17.5236 39.5543 377429 $GNGGA,194916.000,5246.5575,N,00026.3577,E,1,8,1.44,34.6,M,47.0,M,,*7E $GNRMC,194916.000,A,5246.5575,N,00026.3577,E,0.25,2.32,070325,,,A*70 -0.477368 1.29571 9.74597 -0.00397062 -0.00778853 0.00641408
409 -59 22.2743 1011.7 49.6994 64000 26.8105 1011.15 17.5447 39.5282 376136 $GNGGA,194917.000,5246.5570,N,00026.3573,E,1,8,1.44,34.7,M,47.0,M,,*7F $GNRMC,194917.000,A,5246.5570,N,00026.3573,E,1.45,215.01,070325,,,A*73 -0.463011 1.28734 9.75076 -0.00442877 -0.00671952 0.00626137
410 -55 22.2765 1011.7 49.7058 63952 26.7956 1011.15 17.5024 39.5028 375707 $GNGGA,194918.000,5246.5567,N,00026.3569,E,1,8,1.44,34.9,M,47.0,M,,*73 $GNRMC,194918.000,A,5246.5567,N,00026.3569,E,1.14,217.09,070325,,,A*7F -0.461815 1.28854 9.74357 -0.00458149 -0.00687223 0.00671952
411 -47 22.279 1011.7 49.6819 63952 1.16 11 1011.14 17.5553 39.4965 376136 $GNGGA,194919.000,5246.5567,N,00026.3567,E,1,8,1.44,34.8,M,47.0,M,,*7D $GNRMC,194919.000,A,5246.5567,N,00026.3567,E,0.27,217.09,070325,,,A*71 -0.463011 1.28854 9.74118 -0.00473421 -0.00733038 0.00534507
412 -47 22.2777 1011.7 49.6938 63904 26.7837 1011.14 17.5553 39.4659 376566 $GNGGA,194921.000,5246.5567,N,00026.3566,E,1,8,1.44,34.7,M,47.0,M,,*78 $GNRMC,194921.000,A,5246.5567,N,00026.3566,E,0.42,217.09,070325,,,A*78 -0.477368 1.28854 9.74238 -0.00442877 -0.00641408 0.0056505
413 -47 22.2802 1011.7 49.7062 64096 26.7796 1011.14 17.587 39.4358 381385 $GNGGA,194922.000,5246.5567,N,00026.3563,E,1,8,1.44,34.7,M,47.0,M,,*7E $GNRMC,194922.000,A,5246.5567,N,00026.3563,E,0.49,217.09,070325,,,A*75 -0.480958 1.29212 9.74717 -0.00427606 -0.0065668 0.00580322
414 -45 22.2821 1011.69 49.7125 64289 26.7849 1011.14 17.6187 39.4363 376997 $GNGGA,194923.000,5246.5567,N,00026.3562,E,1,8,1.44,34.7,M,47.0,M,,*7E $GNRMC,194923.000,A,5246.5567,N,00026.3562,E,0.28,217.09,070325,,,A*72 -0.459422 1.29212 9.74717 -0.00534507 -0.00671952 0.00641408
416 -66 22.2837 1011.69 49.749 63808 26.7913 1011.15 17.5341 39.4311 374851 $GNGGA,194926.000,5246.5563,N,00026.3558,E,1,8,1.44,34.7,M,47.0,M,,*76 $GNRMC,194926.000,A,5246.5563,N,00026.3558,E,0.13,206.14,070325,,,A*7E -0.464208 1.2993 9.74597 -0.00427606 -0.00733038 0.00641408
417 -70 22.2853 1011.69 49.7552 64144 26.7913 1011.15 17.5236 39.4252 374851 $GNGGA,194927.000,5246.5563,N,00026.3556,E,1,8,1.44,35.0,M,47.0,M,,*7F $GNRMC,194927.000,A,5246.5563,N,00026.3556,E,0.16,206.14,070325,,,A*74 -0.47019 1.3005 9.74717 -0.00458149 -0.0074831 0.00549779
418 -70 22.2878 1011.69 49.7556 64337 26.7919 1011.15 17.5024 39.4312 377429 $GNGGA,194928.000,5246.5562,N,00026.3554,E,1,8,1.44,35.0,M,47.0,M,,*73 $GNRMC,194928.000,A,5246.5562,N,00026.3554,E,0.13,206.14,070325,,,A*7D -0.472583 1.29691 9.74357 -0.00488692 -0.00702495 0.00580322
419 -63 22.2898 1011.7 49.7618 64048 26.7931 1011.15 17.5447 39.4254 380085 $GNGGA,194929.000,5246.5562,N,00026.3555,E,1,8,1.44,35.0,M,47.0,M,,*73 $GNRMC,194929.000,A,5246.5562,N,00026.3555,E,0.15,206.14,070325,,,A*7B -0.473779 1.28973 9.75195 -0.00381791 -0.00733038 0.00580322
420 -42 22.2812 1011.7 49.7487 63100 26.9487 1011.15 17.4919 39.4422 379870 $GNGGA,194931.000,5246.5563,N,00026.3554,E,1,8,1.44,35.0,M,47.0,M,,*7A $GNRMC,194931.000,A,5246.5563,N,00026.3554,E,0.58,206.14,070325,,,A*7B -0.472583 1.29691 9.74477 -0.00488692 -0.00687223 0.00641408
421 -57 22.2831 1011.69 49.755 63476 26.9575 1011.14 17.5553 39.4075 382693 $GNGGA,194932.000,5246.5564,N,00026.3554,E,1,8,1.44,35.0,M,47.0,M,,*7E $GNRMC,194932.000,A,5246.5564,N,00026.3554,E,0.29,206.14,070325,,,A*79 -0.478565 1.29452 9.74717 -0.00473421 -0.00687223 0.00626137
422 -65 22.2859 1011.7 49.7553 63952 26.9048 1011.15 17.513 39.3721 382256 $GNGGA,194933.000,5246.5565,N,00026.3554,E,1,8,1.44,35.0,M,47.0,M,,*7E $GNRMC,194933.000,A,5246.5565,N,00026.3554,E,0.30,206.14,070325,,,A*71 -0.463011 1.29332 9.73759 -0.00458149 -0.00687223 0.0056505
424 -69 22.2874 1011.69 49.7736 63665 26.8353 1011.13 17.6398 39.3172 375279 $GNGGA,194936.000,5246.5560,N,00026.3553,E,1,8,1.44,35.0,M,47.0,M,,*79 $GNRMC,194936.000,A,5246.5560,N,00026.3553,E,0.58,186.11,070325,,,A*76 -0.474975 1.29811 9.74357 -0.00397062 -0.00794125 0.00626137
425 -71 22.2894 1011.68 49.8162 64048 26.8288 1011.14 17.587 39.3046 375707 $GNGGA,194937.000,5246.5561,N,00026.3554,E,1,8,1.44,34.8,M,47.0,M,,*77 $GNRMC,194937.000,A,5246.5561,N,00026.3554,E,0.10,186.11,070325,,,A*7D -0.463011 1.30289 9.74956 -0.00351247 -0.00717767 0.00687223
426 -82 22.2931 1011.68 49.8348 64144 26.8261 1011.13 17.6715 39.3161 381168 $GNGGA,194938.000,5246.5562,N,00026.3555,E,1,8,1.44,34.8,M,47.0,M,,*7A $GNRMC,194938.000,A,5246.5562,N,00026.3555,E,0.20,186.11,070325,,,A*73 -0.473779 1.29452 9.75076 -0.00427606 -0.00641408 0.00519235
428 -71 22.296 1011.68 49.8715 63760 26.8304 1011.13 17.6504 39.2988 380951 $GNGGA,194941.000,5246.5561,N,00026.3555,E,1,8,1.44,34.8,M,47.0,M,,*77 $GNRMC,194941.000,A,5246.5561,N,00026.3555,E,0.15,186.11,070325,,,A*78 -0.465404 1.29691 9.73879 -0.00488692 -0.00595593 0.00503964
429 -60 22.3001 1011.69 49.9144 64144 26.8279 1011.13 17.661 39.2748 374851 $GNGGA,194942.000,5246.5561,N,00026.3554,E,1,8,1.44,34.9,M,47.0,M,,*74 $GNRMC,194942.000,A,5246.5561,N,00026.3554,E,0.17,186.11,070325,,,A*78 -0.465404 1.28973 9.73759 -0.00473421 -0.00671952 0.00671952
430 -76 22.3036 1011.69 49.933 64192 26.8323 1011.13 17.7032 39.2634 380085 $GNGGA,194943.000,5246.5560,N,00026.3554,E,1,8,1.44,34.9,M,47.0,M,,*74 $GNRMC,194943.000,A,5246.5560,N,00026.3554,E,0.22,186.11,070325,,,A*7E -0.466601 1.30409 9.74477 -0.00458149 -0.00641408 0.00610865
431 -76 22.3068 1011.69 49.9576 64192 1.14 18 1011.13 17.6927 39.2693 379009 $GNGGA,194944.000,5246.5560,N,00026.3553,E,1,9,1.36,34.8,M,47.0,M,,*71 $GNRMC,194944.000,A,5246.5560,N,00026.3553,E,0.21,186.11,070325,,,A*7D -0.465404 1.29452 9.74956 -0.00488692 -0.00717767 0.00641408
432 -82 22.3064 1011.69 49.9818 64000 26.8374 1011.14 17.6081 39.2403 377429 $GNGGA,194946.000,5246.5558,N,00026.3553,E,1,9,1.36,34.8,M,47.0,M,,*78 $GNRMC,194946.000,A,5246.5558,N,00026.3553,E,0.68,186.36,070325,,,A*7C -0.464208 1.29571 9.74717 -0.00458149 -0.00671952 0.00641408
433 -79 22.3099 1011.68 50.0065 64386 26.8431 1011.14 17.6081 39.235 376997 $GNGGA,194947.000,5246.5556,N,00026.3552,E,1,9,1.36,34.7,M,47.0,M,,*79 $GNRMC,194947.000,A,5246.5556,N,00026.3552,E,0.58,186.36,070325,,,A*71 -0.472583 1.30289 9.74238 -0.00442877 -0.00687223 0.00671952
434 -77 22.3126 1011.69 50.0249 64096 26.8405 1011.14 17.6187 39.2169 376136 $GNGGA,194948.000,5246.5556,N,00026.3552,E,1,9,1.36,34.7,M,47.0,M,,*76 $GNRMC,194948.000,A,5246.5556,N,00026.3552,E,0.48,186.36,070325,,,A*7F -0.467797 1.3017 9.74238 -0.00442877 -0.00641408 0.00595593
435 -78 22.3155 1011.7 50.0435 64337 26.8431 1011.13 17.6504 39.2409 381385 $GNGGA,194949.000,5246.5559,N,00026.3554,E,1,9,1.36,34.7,M,47.0,M,,*7E $GNRMC,194949.000,A,5246.5559,N,00026.3554,E,0.05,186.36,070325,,,A*7E -0.459422 1.29691 9.74238 -0.00427606 -0.00733038 0.0056505
436 -78 22.3144 1011.71 50.0373 64240 26.8446 1011.15 17.5447 39.2114 376566 $GNGGA,194951.000,5246.5558,N,00026.3553,E,1,9,1.36,34.7,M,47.0,M,,*71 $GNRMC,194951.000,A,5246.5558,N,00026.3553,E,0.28,186.36,070325,,,A*7E -0.458226 1.29691 9.74118 -0.00397062 -0.00717767 0.00626137
437 -74 22.3177 1011.71 50.062 63952 26.8456 1011.15 17.4919 39.2115 381168 $GNGGA,194952.000,5246.5557,N,00026.3552,E,1,9,1.36,34.8,M,47.0,M,,*73 $GNRMC,194952.000,A,5246.5557,N,00026.3552,E,0.39,186.36,070325,,,A*73 -0.461815 1.29452 9.74238 -0.00442877 -0.00763582 0.00717767
438 -72 22.3206 1011.71 50.0381 64630 26.8491 1011.16 17.4073 39.2178 375707 $GNGGA,194953.000,5246.5555,N,00026.3551,E,1,9,1.36,34.8,M,47.0,M,,*73 $GNRMC,194953.000,A,5246.5555,N,00026.3551,E,0.58,177.05,070325,,,A*7A -0.464208 1.28136 9.74717 -0.00458149 -0.00702495 0.0056505
439 -73 22.3237 1011.71 50.0082 64096 27.0025 1011.17 17.3439 39.2521 380734 $GNGGA,194954.000,5246.5554,N,00026.3553,E,1,9,1.36,34.7,M,47.0,M,,*78 $GNRMC,194954.000,A,5246.5554,N,00026.3553,E,0.51,177.05,070325,,,A*77 -0.465404 1.28854 9.74477 -0.00473421 -0.00794125 0.00610865
440 -74 22.3259 1011.71 50.0145 64483 1.17 11 1011.17 17.3227 39.2231 381602 $GNGGA,194955.000,5246.5554,N,00026.3553,E,1,9,1.36,34.7,M,47.0,M,,*79 $GNRMC,194955.000,A,5246.5554,N,00026.3553,E,0.31,177.05,070325,,,A*70 -0.472583 1.30528 9.74717 -0.00488692 -0.00809396 0.00610865
441 -75 22.3234 1011.71 49.9718 63808 26.9226 1011.16 17.4073 39.1842 376566 $GNGGA,194957.000,5246.5553,N,00026.3553,E,1,9,1.36,34.7,M,47.0,M,,*7C $GNRMC,194957.000,A,5246.5553,N,00026.3553,E,0.19,177.05,070325,,,A*7F -0.455833 1.29571 9.74238 -0.00519235 -0.00778853 0.00610865
442 -74 22.3249 1011.71 49.9478 63760 26.9034 1011.15 17.4707 39.1821 380517 $GNGGA,194958.000,5246.5552,N,00026.3553,E,1,9,1.36,34.7,M,47.0,M,,*72 $GNRMC,194958.000,A,5246.5552,N,00026.3553,E,0.21,177.05,070325,,,A*7A -0.47019 1.29093 9.74717 -0.00427606 -0.00687223 0.00595593
443 -74 22.3275 1011.71 49.9299 63952 26.8927 1011.15 17.4813 39.181 381385 $GNGGA,194959.000,5246.5551,N,00026.3553,E,1,10,1.13,34.7,M,47.0,M,,*4F $GNRMC,194959.000,A,5246.5551,N,00026.3553,E,0.27,177.05,070325,,,A*7E -0.459422 1.28973 9.74118 -0.00503964 -0.00717767 0.00671952
444 -74 22.3294 1011.7 49.8939 64144 1.14 13 1011.15 17.5024 39.198 376997 $GNGGA,195000.000,5246.5551,N,00026.3554,E,1,10,1.13,34.7,M,47.0,M,,*4C $GNRMC,195000.000,A,5246.5551,N,00026.3554,E,0.18,177.05,070325,,,A*71 -0.472583 1.30768 9.74477 -0.00381791 -0.00626137 0.00610865
445 -73 22.3273 1011.7 49.8815 63952 26.8827 1011.15 17.5447 39.1918 381385 $GNGGA,195002.000,5246.5550,N,00026.3553,E,1,10,1.13,34.7,M,47.0,M,,*48 $GNRMC,195002.000,A,5246.5550,N,00026.3553,E,0.19,177.05,070325,,,A*74 -0.472583 1.29571 9.75076 -0.00458149 -0.0065668 0.00610865
447 -72 22.3314 1011.7 49.8336 64289 26.8804 1011.14 17.587 39.2034 376997 $GNGGA,195004.000,5246.5551,N,00026.3555,E,1,10,1.13,34.7,M,47.0,M,,*49 $GNRMC,195004.000,A,5246.5551,N,00026.3555,E,0.00,177.05,070325,,,A*7D -0.468993 1.29452 9.74836 -0.00458149 -0.00702495 0.00626137
448 -73 22.3339 1011.7 49.8037 64240 26.8859 1011.14 17.6187 39.2039 380517 $GNGGA,195005.000,5246.5552,N,00026.3555,E,1,10,1.13,34.7,M,47.0,M,,*4B $GNRMC,195005.000,A,5246.5552,N,00026.3555,E,0.13,177.05,070325,,,A*7D -0.472583 1.3005 9.75076 -0.00442877 -0.00671952 0.00610865
449 -72 22.331 1011.7 49.7609 63618 26.8927 1011.14 17.587 39.2166 379224 $GNGGA,195007.000,5246.5554,N,00026.3556,E,1,10,1.13,34.7,M,47.0,M,,*4C $GNRMC,195007.000,A,5246.5554,N,00026.3556,E,0.36,177.05,070325,,,A*7D -0.477368 1.29571 9.75315 -0.00458149 -0.0065668 0.00610865
450 -72 22.3325 1011.7 49.7551 63856 26.8911 1011.14 17.5553 39.2104 376997 $GNGGA,195008.000,5246.5553,N,00026.3554,E,1,10,1.13,34.7,M,47.0,M,,*46 $GNRMC,195008.000,A,5246.5553,N,00026.3554,E,0.20,177.05,070325,,,A*70 -0.460618 1.30528 9.73759 -0.00488692 -0.00717767 0.00671952
451 -72 22.3345 1011.7 49.7311 64434 26.8921 1011.14 17.5553 39.2165 376136 $GNGGA,195009.000,5246.5555,N,00026.3555,E,1,10,1.13,34.7,M,47.0,M,,*40 $GNRMC,195009.000,A,5246.5555,N,00026.3555,E,0.34,177.05,070325,,,A*73 -0.471386 1.28495 9.76032 -0.00427606 -0.0065668 0.0056505
452 -74 22.3361 1011.7 49.7071 64289 26.8911 1011.14 17.587 39.2104 375707 $GNGGA,195010.000,5246.5554,N,00026.3554,E,1,10,1.13,34.7,M,47.0,M,,*48 $GNRMC,195010.000,A,5246.5554,N,00026.3554,E,0.11,177.05,070325,,,A*7C -0.480958 1.29212 9.73999 -0.00397062 -0.0065668 0.00641408
453 -74 22.3325 1011.69 49.6886 63665 26.8944 1011.14 17.5658 39.2227 379654 $GNGGA,195012.000,5246.5552,N,00026.3555,E,1,10,1.13,34.5,M,47.0,M,,*4F $GNRMC,195012.000,A,5246.5552,N,00026.3555,E,0.65,152.39,070325,,,A*72 -0.478565 1.2993 9.74597 -0.00473421 -0.00641408 0.0065668
454 -74 22.3341 1011.69 49.6767 64000 26.8982 1011.15 17.5024 39.2112 376997 $GNGGA,195013.000,5246.5551,N,00026.3556,E,1,10,1.13,34.3,M,47.0,M,,*48 $GNRMC,195013.000,A,5246.5551,N,00026.3556,E,0.51,152.39,070325,,,A*74 -0.465404 1.30409 9.74597 -0.00442877 -0.00671952 0.00580322
455 -74 22.3366 1011.7 49.677 64289 26.9001 1011.15 17.513 39.2055 381168 $GNGGA,195014.000,5246.5550,N,00026.3558,E,1,10,1.13,34.3,M,47.0,M,,*40 $GNRMC,195014.000,A,5246.5550,N,00026.3558,E,0.53,152.39,070325,,,A*7E -
457 -75 22.338 1011.7 49.6651 64000 26.9077 1011.15 17.513 39.2004 381602 $GNGGA,195017.000,5246.5549,N,00026.3562,E,1,10,1.13,34.2,M,47.0,M,,*43 $GNRMC,195017.000,A,5246.5549,N,00026.3562,E,0.28,69.70,070325,,,A*44 -0.460618 1.29811 9.75076 -0.00488692 -0.00717767 0.00580322
458 -75 22.3398 1011.7 49.6713 64434 27.0689 1011.16 17.3967 39.2177 383570 $GNGGA,195018.000,5246.5550,N,00026.3564,E,1,10,1.13,34.2,M,47.0,M,,*42 $GNRMC,195018.000,A,5246.5550,N,00026.3564,E,0.33,69.70,070325,,,A*4F -0.477368 1.29452 9.75076 -0.00397062 -0.00763582 0.00687223
459 -75 22.3417 1011.71 49.6716 64192 27.0595 1011.15 17.5447 39.1633 382693 $GNGGA,195019.000,5246.5549,N,00026.3563,E,1,10,1.13,34.2,M,47.0,M,,*4C $GNRMC,195019.000,A,5246.5549,N,00026.3563,E,0.14,69.70,070325,,,A*44 -0.474975 1.29691 9.75554 -0.00381791 -0.00717767 0.00580322
460 -74 22.3433 1011.71 49.6597 64240 27.0206 1011.15 17.5236 39.1236 380301 $GNGGA,195020.000,5246.5548,N,00026.3562,E,1,10,1.13,34.2,M,47.0,M,,*46 $GNRMC,195020.000,A,5246.5548,N,00026.3562,E,0.68,224.85,070325,,,A*74 -0.476172 1.29811 9.75076 -0.00442877 -0.00687223 0.00626137
461 -75 22.3458 1011.71 49.6539 64434 1.15 17.513 39.0819 919 39.0843 382256 $GNGGA,195021.000,5246.5547,N,00026.3560,E,1,10,1.13,34.2,M,47.0,M,,*4A $GNRMC,195021.000,A,5246.5547,N,00026.3560,E,0.70,233.00,070325,,,A*7A -0.471386 1.29332 9.74118 -0.00412334 -0.0074831 0.00610865
463 -74 22.347 1011.71 49.6481 64483 26.9446 1011.15 17.5341 39.0443 377429 $GNGGA,195024.000,5246.5543,N,00026.3556,E,1,10,1.13,34.2,M,47.0,M,,*4E $GNRMC,195024.000,A,5246.5543,N,00026.3556,E,0.49,218.14,070325,,,A*78 -0.465404 1.30648 9.74118 -0.00442877 -0.00671952 0.00641408
464 -74 22.3495 1011.71 49.6484 64728 26.9431 1011.15 17.513 39.0264 376997 $GNGGA,195025.000,5246.5542,N,00026.3553,E,1,10,1.13,34.2,M,47.0,M,,*4B $GNRMC,195025.000,A,5246.5542,N,00026.3553,E,0.68,238.13,070325,,,A*7B -0.468993 1.30409 9.74357 -0.00458149 -0.00641408 0.00702495
466 -74 22.3499 1011.7 49.6182 64192 26.938 1011.14 17.5553 39.0022 382474 $GNGGA,195028.000,5246.5541,N,00026.3556,E,1,10,1.13,34.2,M,47.0,M,,*40 $GNRMC,195028.000,A,5246.5541,N,00026.3556,E,0.47,238.13,070325,,,A*7D -0.485743 1.29452 9.74477 -0.00488692 -0.00687223 0.00595593
467 -74 22.3521 1011.7 49.6306 64386 26.9409 1011.14 17.5553 39.0084 380085 $GNGGA,195029.000,5246.5541,N,00026.3557,E,1,9,1.16,34.2,M,47.0,M,,*7D $GNRMC,195029.000,A,5246.5541,N,00026.3557,E,0.39,238.13,070325,,,A*74 -0.467797 1.29332 9.74357 -0.00458149 -0.00717767 0.00610865
468 -74 22.3556 1011.7 49.625 64192 26.9392 1011.15 17.5236 38.9963 383131 $GNGGA,195030.000,5246.5540,N,00026.3556,E,1,9,1.16,34.2,M,47.0,M,,*75 $GNRMC,195030.000,A,5246.5540,N,00026.3556,E,0.34,238.13,070325,,,A*71 -0.468993 1.3017 9.75076 -0.00473421 -0.00733038 0.0065668
469 -74 22.3571 1011.7 49.6191 64192 15 1437 1011.14 17.5764 38.985 384010 $GNGGA,195031.000,5246.5539,N,00026.3556,E,1,9,1.16,34.2,M,47.0,M,,*7A $GNRMC,195031.000,A,5246.5539,N,00026.3556,E,0.23,238.13,070325,,,A*78 -0.471386 1.3017 9.74717 -0.00473421 -0.00702495 0.00595593
471 -73 22.3571 1011.69 49.5949 64192 26.9507 1011.15 17.5447 38.9561 382912 $GNGGA,195034.000,5246.5537,N,00026.3556,E,1,10,1.13,34.2,M,47.0,M,,*4C $GNRMC,195034.000,A,5246.5537,N,00026.3556,E,0.32,238.13,070325,,,A*73 -0.465404 1.30528 9.74836 -0.00488692 -0.00687223 0.00580322
472 -73 22.3597 1011.7 49.5832 64679 26.9525 1011.13 17.6398 38.9386 383131 $GNGGA,195035.000,5246.5536,N,00026.3557,E,1,10,1.13,34.2,M,47.0,M,,*4D $GNRMC,195035.000,A,5246.5536,N,00026.3557,E,0.31,238.13,070325,,,A*71 -0.457029 1.29452 9.74357 -0.00397062 -0.00641408 0.00595593
474 -73 22.3536 1011.69 49.5401 63429 27.1116 1011.15 17.513 38.9319 384010 $GNGGA,195038.000,5246.5536,N,00026.3554,E,1,10,1.13,34.3,M,47.0,M,,*42 $GNRMC,195038.000,A,5246.5536,N,00026.3554,E,0.23,238.13,070325,,,A*7C -0.478565 1.30289 9.75195 -0.00473421 -0.0074831 0.00626137
475 -73 22.3546 1011.7 49.5523 63904 27.1196 1011.16 17.4496 38.8913 383351 $GNGGA,195039.000,5246.5536,N,00026.3554,E,1,10,1.12,34.3,M,47.0,M,,*42 $GNRMC,195039.000,A,5246.5536,N,00026.3554,E,0.54,238.13,070325,,,A*7D -0.477368 1.29212 9.74597 -0.00412334 -0.00763582 0.00671952
476 -73 22.3571 1011.69 49.5526 63904 27.0696 1011.14 17.5764 38.8327 384452 $GNGGA,195040.000,5246.5537,N,00026.3557,E,1,10,1.13,34.2,M,47.0,M,,*4E $GNRMC,195040.000,A,5246.5537,N,00026.3557,E,0.56,238.13,070325,,,A*73 -0.466601 1.28854 9.74717 -0.00412334 -0.00794125 0.00580322
477 -73 22.3593 1011.69 49.5469 64192 11.15 1 1011.15 17.5341 38.8112 383790 $GNGGA,195041.000,5246.5538,N,00026.3559,E,1,10,1.12,34.2,M,47.0,M,,*4F $GNRMC,195041.000,A,5246.5538,N,00026.3559,E,0.58,238.13,070325,,,A*7D -0.472583 1.29212 9.74357 -0.00442877 -0.00702495 0.00626137
478 -73 22.3571 1011.69 49.5466 63952 26.9991 1011.15 17.5236 38.7897 384231 $GNGGA,195043.000,5246.5541,N,00026.3565,E,1,10,1.13,34.2,M,47.0,M,,*4D $GNRMC,195043.000,A,5246.5541,N,00026.3565,E,0.59,11.50,070325,,,A*41 -0.468993 1.30289 9.75076 -0.00473421 -0.00717767 0.00610865
479 -73 22.3587 1011.69 49.5287 63952 26.9882 1011.15 17.5341 38.7708 381385 $GNGGA,195044.000,5246.5541,N,00026.3565,E,1,9,1.16,34.3,M,47.0,M,,*76 $GNRMC,195044.000,A,5246.5541,N,00026.3565,E,0.36,11.50,070325,,,A*4F -0.48335 1.2993 9.73042 -0.00488692 -0.0074831 0.00641408
480 -73 22.3612 1011.69 49.5108 64192 26.9907 1011.15 17.4707 38.7592 384010 $GNGGA,195045.000,5246.5542,N,00026.3566,E,1,9,1.16,34.3,M,47.0,M,,*77 $GNRMC,195045.000,A,5246.5542,N,00026.3566,E,0.26,11.50,070325,,,A*4F -0.478565 1.2993 9.73999 -0.00412334 -0.00702495 0.00549779
481 -72 22.364 1011.69 49.5052 64386 16 17.3967 38.6 17.439 38.7471 383570 $GNGGA,195046.000,5246.5541,N,00026.3565,E,1,9,1.16,34.3,M,47.0,M,,*74 $GNRMC,195046.000,A,5246.5541,N,00026.3565,E,0.14,11.50,070325,,,A*4D -0.479761 1.29691 9.74956 -0.00473421 -0.00733038 0.00610865
482 -73 22.3638 1011.7 49.4931 64240 26.9902 1011.16 17.4496 38.7237 380301 $GNGGA,195048.000,5246.5542,N,00026.3566,E,1,9,1.16,34.4,M,47.0,M,,*7D $GNRMC,195048.000,A,5246.5542,N,00026.3566,E,0.27,11.50,070325,,,A*43 -0.474975 1.30528 9.74956 -0.00442877 -0.00763582 0.00671952
483 -73 22.3659 1011.7 49.4933 64337 26.9896 1011.15 17.4813 38.7295 380951 $GNGGA,195049.000,5246.5541,N,00026.3566,E,1,9,1.16,34.4,M,47.0,M,,*7F $GNRMC,195049.000,A,5246.5541,N,00026.3566,E,0.20,11.50,070325,,,A*46 -0.467797 1.3005 9.74357 -0.00397062 -0.00702495 0.00595593
484 -73 22.3673 1011.7 49.4814 64386 26.9882 1011.15 17.5341 38.7294 382912 $GNGGA,195050.000,5246.5542,N,00026.3567,E,1,9,1.16,34.4,M,47.0,M,,*75 $GNRMC,195050.000,A,5246.5542,N,00026.3567,E,0.09,11.50,070325,,,A*47 -0.477368 1.3005 9.7364 -0.00488692 -0.0074831 0.00549779
485 -73 22.3696 1011.69 49.4696 64483 26.9921 1011.14 17.5658 38.7416 384010 $GNGGA,195051.000,5246.5543,N,00026.3568,E,1,9,1.16,34.4,M,47.0,M,,*7A $GNRMC,195051.000,A,5246.5543,N,00026.3568,E,0.12,11.50,070325,,,A*42 -0.473779 1.28973 9.74836 -0.00442877 -0.00733038 0.00641408
486 -72 22.3675 1011.69 49.4573 64386 26.9927 1011.15 17.4919 38.7476 382693 $GNGGA,195053.000,5246.5542,N,00026.3567,E,1,10,1.12,34.4,M,47.0,M,,*4A $GNRMC,195053.000,A,5246.5542,N,00026.3567,E,0.27,11.50,070325,,,A*48 -0.474975 1.29811 9.7352 -0.00381791 -0.00687223 0.00671952
487 -73 22.3689 1011.7 49.4514 64483 26.9968 1011.15 17.4919 38.7658 380085 $GNGGA,195054.000,5246.5542,N,00026.3567,E,1,10,1.13,34.3,M,47.0,M,,*4B $GNRMC,195054.000,A,5246.5542,N,00026.3567,E,0.19,11.50,070325,,,A*42 -0.477368 1.30409 9.75195 -0.00412334 -0.00778853 0.00610865
488 -73 22.3706 1011.69 49.4456 64289 26.9974 1011.15 17.5024 38.7836 382038 $GNGGA,195055.000,5246.5539,N,00026.3566,E,1,10,1.12,34.3,M,47.0,M,,*46 $GNRMC,195055.000,A,5246.5539,N,00026.3566,E,0.65,191.77,070325,,,A*79 -0.466601 1.28854 9.74956 -0.00473421 -0.00702495 0.00595593
489 -72 22.3732 1011.7 49.4338 64434 26.9997 1011.15 17.4707 38.8016 383570 $GNGGA,195056.000,5246.5539,N,00026.3566,E,1,10,1.12,34.2,M,47.0,M,,*44 $GNRMC,195056.000,A,5246.5539,N,00026.3566,E,0.37,191.77,070325,,,A*7D -0.47019 1.30409 9.74956 -0.00442877 -0.00687223 0.00641408
490 -73 22.3706 1011.69 49.4395 64434 27.0064 1011.15 17.4919 38.8141 382912 $GNGGA,195058.000,5246.5540,N,00026.3570,E,1,10,1.13,34.1,M,47.0,M,,*41 $GNRMC,195058.000,A,5246.5540,N,00026.3570,E,0.55,78.54,070325,,,A*49 -0.460618 1.30528 9.74118 -0.00442877 -0.00671952 0.00610865
491 -73 22.3722 1011.69 49.4397 64000 27.0038 1011.15 17.5341 38.808 382256 $GNGGA,195059.000,5246.5538,N,00026.3570,E,1,10,1.12,34.1,M,47.0,M,,*4E $GNRMC,195059.000,A,5246.5538,N,00026.3570,E,0.37,78.54,070325,,,A*43 -0.472583 1.29691 9.74477 -0.00473421 -0.00687223 0.00580322
492 -73 22.3751 1011.69 49.4341 64532 27.1628 1011.16 17.3967 38.8663 380951 $GNGGA,195100.000,5246.5539,N,00026.3574,E,1,10,1.12,34.1,M,47.0,M,,*46 $GNRMC,195100.000,A,5246.5539,N,00026.3574,E,0.48,78.54,070325,,,A*43 -0.472583 1.3005 9.74357 -0.00473421 -0.00870483 0.0056505
493 -73 22.3773 1011.69 49.4404 64728 27.1612 1011.16 17.3862 38.8307 382474 $GNGGA,195101.000,5246.5538,N,00026.3572,E,1,10,1.12,34.1,M,47.0,M,,*40 $GNRMC,195101.000,A,5246.5538,N,00026.3572,E,0.12,78.54,070325,,,A*4A -0.466601 1.29093 9.734 -0.00503964 -0.0074831 0.00626137
494 -73 22.3798 1011.69 49.4286 64630 1.16136 1011.16 17.4284 38.8078 383570 $GNGGA,195102.000,5246.5537,N,00026.3572,E,1,10,1.12,34.1,M,47.0,M,,*4C $GNRMC,195102.000,A,5246.5537,N,00026.3572,E,0.62,179.67,070325,,,A*71 -0.478565 1.29452 9.75195 -0.00458149 -0.00641408 0.0056505
495 -72 22.3777 1011.7 49.4102 64192 27.0579 1011.15 17.5341 38.7901 381385 $GNGGA,195104.000,5246.5537,N,00026.3571,E,1,10,1.12,34.1,M,47.0,M,,*49 $GNRMC,195104.000,A,5246.5537,N,00026.3571,E,0.15,179.67,070325,,,A*74 -0.473779 1.30289 9.73999 -0.00381791 -0.00809396 0.00610865
496 -72 22.3782 1011.7 49.4103 64289 27.0499 1011.15 17.5341 38.801 381602 $GNGGA,195105.000,5246.5537,N,00026.3571,E,1,10,1.12,34.1,M,47.0,M,,*48 $GNRMC,195105.000,A,5246.5537,N,00026.3571,E,0.09,179.67,070325,,,A*78 -0.468993 1.29332 9.75076 -0.00458149 -0.00671952 0.0056505
497 -73 22.3808 1011.7 49.4106 64289 27.039 1011.15 17.5236 38.8058 384010 $GNGGA,195106.000,5246.5537,N,00026.3571,E,1,10,1.12,34.1,M,47.0,M,,*4B $GNRMC,195106.000,A,5246.5537,N,00026.3571,E,0.04,179.67,070325,,,A*76 -0.479761 1.30289 9.74956 -0.00458149 -0.0065668 0.00610865
498 -73 22.3833 1011.71 49.4049 64483 27.0355 1011.16 17.4179 38.8054 380734 $GNGGA,195107.000,5246.5537,N,00026.3571,E,1,10,1.12,34.1,M,47.0,M,,*4A $GNRMC,195107.000,A,5246.5537,N,00026.3571,E,0.50,179.67,070325,,,A*76 -0.471386 1.2993 9.75195 -0.00427606 -0.00671952 0.00595593
499 -73 22.3808 1011.71 49.3986 64144 27.0298 1011.15 17.513 38.8166 380517 $GNGGA,195109.000,5246.5539,N,00026.3572,E,1,10,1.12,34.3,M,47.0,M,,*4B $GNRMC,195109.000,A,5246.5539,N,00026.3572,E,0.30,179.67,070325,,,A*73 -0.47019 1.29332 9.73879 -0.00427606 -0.00626137 0.00580322
500 -73 22.3839 1011.71 49.411 64192 27.031 1011.15 17.4919 38.8168 382912 $GNGGA,195110.000,5246.5540,N,00026.3573,E,1,10,1.12,34.3,M,47.0,M,,*4C $GNRMC,195110.000,A,5246.5540,N,00026.3573,E,0.44,179.67,070325,,,A*77 -0.467797 1.29811 9.73879 -0.00381791 -0.00778853 0.00580322
501 -72 22.3868 1011.71 49.3993 64581 27.0341 1011.16 17.4496 38.8112 383131 $GNGGA,195111.000,5246.5541,N,00026.3572,E,1,10,1.12,34.2,M,47.0,M,,*4C $GNRMC,195111.000,A,5246.5541,N,00026.3572,E,0.33,179.67,070325,,,A*76 -0.476172 1.28854 9.73999 -0.00488692 -0.00702495 0.00595593
503 -73 22.387 1011.7 49.3933 64000 27.0402 1011.16 17.4073 38.8059 381820 $GNGGA,195114.000,5246.5542,N,00026.3575,E,1,10,1.12,34.2,M,47.0,M,,*4D $GNRMC,195114.000,A,5246.5542,N,00026.3575,E,0.16,179.67,070325,,,A*70 -0.472583 1.3017 9.75315 -0.00442877 -0.00641408 0.0065668
504 -72 22.389 1011.7 49.3935 64144 27.0366 1011.16 17.4179 38.8114 381385 $GNGGA,195115.000,5246.5543,N,00026.3575,E,1,10,1.12,34.2,M,47.0,M,,*4D $GNRMC,195115.000,A,5246.5543,N,00026.3575,E,0.09,179.67,070325,,,A*7E -0.478565 1.29571 9.74956 -0.00381791 -0.00671952 0.0056505
507 -68 22.3933 1011.71 49.376 64192 27.0499 1011.16 17.3862 38.801 379224 $GNGGA,195119.000,5246.5542,N,00026.3575,E,1,9,1.16,34.2,M,47.0,M,,*7C $GNRMC,195119.000,A,5246.5542,N,00026.3575,E,0.47,179.67,070325,,,A*79 -0.472583 1.3017 9.75076 -0.00167988 -0.00488692 0.00641408
508 -68 22.3933 1011.71 49.382 64192 27.0564 1011.16 17.4179 38.7958 382256 $GNGGA,195120.000,5246.5542,N,00026.3578,E,1,9,1.15,34.1,M,47.0,M,,*7B $GNRMC,195120.000,A,5246.5542,N,00026.3578,E,0.84,80.34,070325,,,A*40 -0.474975 1.31127 9.74357 -0.00519235 -0.00717767 0.00626137
509 -68 22.3952 1011.71 49.3822 64434 27.0525 1011.16 17.4284 38.7895 382256 $GNGGA,195121.000,5246.5543,N,00026.3581,E,1,9,1.15,34.1,M,47.0,M,,*7D $GNRMC,195121.000,A,5246.5543,N,00026.3581,E,0.84,66.94,070325,,,A*44 -0.468993 1.30409 9.73999 -0.00397062 -0.00641408 0.00671952
510 -68 22.3978 1011.71 49.3705 64386 27.2021 1011.16 17.4284 38.835 383131 $GNGGA,195122.000,5246.5546,N,00026.3585,E,1,9,1.15,34.0,M,47.0,M,,*7E $GNRMC,195122.000,A,5246.5546,N,00026.3585,E,0.99,54.74,070325,,,A*45 -0.466601 1.30887 9.74118 -0.00381791 -0.00488692 0.00519235
511 -70 22.3997 1011.7 49.3768 64386 17 17.3439 38.7 17.3227 38.8014 385559 $GNGGA,195123.000,5246.5548,N,00026.3588,E,1,9,1.15,34.0,M,47.0,M,,*7C $GNRMC,195123.000,A,5246.5548,N,00026.3588,E,0.97,41.33,070325,,,A*4E -0.473779 1.2993 9.75195 -0.00473421 -0.00641408 0.00580322
512 -68 22.4003 1011.71 49.3648 64144 27.1347 1011.17 17.3439 38.7509 383131 $GNGGA,195125.000,5246.5549,N,00026.3590,E,1,9,1.15,34.0,M,47.0,M,,*72 $GNRMC,195125.000,A,5246.5549,N,00026.3590,E,0.50,41.33,070325,,,A*4B -0.476172 1.3017 9.73879 -0.00381791 -0.00763582 0.00580322
513 -68 22.4019 1011.71 49.371 64483 27.1079 1011.17 17.365 38.7362 383131 $GNGGA,195126.000,5246.5549,N,00026.3590,E,1,9,1.15,34.1,M,47.0,M,,*70 $GNRMC,195126.000,A,5246.5549,N,00026.3590,E,0.10,41.33,070325,,,A*4C -0.478565 1.30409 9.7352 -0.00305432 -0.00671952 0.00687223
514 -67 22.4044 1011.71 49.3653 64096 27.0943 1011.16 17.4284 38.7525 382693 $GNGGA,195127.000,5246.5550,N,00026.3591,E,1,9,1.15,34.0,M,47.0,M,,*79 $GNRMC,195127.000,A,5246.5550,N,00026.3591,E,0.42,41.33,070325,,,A*43 -0.482154 1.28973 9.73281 -0.00534507 -0.00717767 0.00534507
515 -67 22.407 1011.71 49.3837 64289 27.0825 1011.16 17.4496 38.7276 382912 $GNGGA,195128.000,5246.5552,N,00026.3594,E,1,9,1.15,33.9,M,47.0,M,,*7F $GNRMC,195128.000,A,5246.5552,N,00026.3594,E,1.45,42.30,070325,,,A*4D -0.485743 1.2993 9.75195 -0.00442877 -0.00809396 0.00519235
516 -68 22.4044 1011.71 49.3773 64192 27.0775 1011.16 17.4073 38.7271 384673 $GNGGA,195130.000,5246.5555,N,00026.3599,E,1,9,1.15,34.0,M,47.0,M,,*72 $GNRMC,195130.000,A,5246.5555,N,00026.3599,E,0.95,39.93,070325,,,A*47 -0.482154 1.30887 9.75315 -0.00534507 -0.0074831 0.00580322
517 -68 22.4056 1011.71 49.3835 64434 27.079 1011.17 17.3545 38.7272 385559 $GNGGA,195131.000,5246.5558,N,00026.3601,E,1,9,1.15,34.1,M,47.0,M,,*7D $GNRMC,195131.000,A,5246.5558,N,00026.3601,E,0.96,37.49,070325,,,A*43 -0.48335 1.30887 9.74956 -0.00488692 -0.00671952 0.00595593
518 -67 22.4079 1011.71 49.3838 64289 27.0816 1011.16 17.3862 38.698 384673 $GNGGA,195132.000,5246.5558,N,00026.3602,E,1,9,1.15,34.1,M,47.0,M,,*7D $GNRMC,195132.000,A,5246.5558,N,00026.3602,E,0.34,37.49,070325,,,A*4B -0.47019 1.30409 9.75434 -0.00290161 -0.00702495 0.00641408
519 -66 22.4112 1011.7 49.3782 64728 16 17.3967 38.6 17.3967 38.6921 384231 $GNGGA,195133.000,5246.5559,N,00026.3603,E,1,9,1.15,34.2,M,47.0,M,,*7F $GNRMC,195133.000,A,5246.5559,N,00026.3603,E,0.23,37.49,070325,,,A*4C -0.468993 1.30528 9.73281 -0.00397062 -0.0065668 0.00641408
520 -68 22.411 1011.71 49.3903 64289 27.0851 1011.16 17.4496 38.6687 384010 $GNGGA,195135.000,5246.5559,N,00026.3604,E,1,9,1.15,34.3,M,47.0,M,,*7F $GNRMC,195135.000,A,5246.5559,N,00026.3604,E,0.31,37.49,070325,,,A*4E -0.473779 1.2993 9.73999 -0.00412334 -0.00794125 0.0056505
521 -67 22.4128 1011.7 49.3965 64337 27.0896 1011.16 17.3862 38.6574 382693 $GNGGA,195136.000,5246.5559,N,00026.3606,E,1,9,1.15,34.3,M,47.0,M,,*7E $GNRMC,195136.000,A,5246.5559,N,00026.3606,E,0.37,37.49,070325,,,A*49 -0.476172 1.3005 9.74118 -0.00458149 -0.00717767 0.00610865
522 -68 22.4152 1011.71 49.3907 64679 27.0911 1011.17 17.365 38.6458 382256 $GNGGA,195137.000,5246.5559,N,00026.3609,E,1,8,1.28,34.3,M,47.0,M,,*7F $GNRMC,195137.000,A,5246.5559,N,00026.3609,E,0.32,37.49,070325,,,A*42 -0.480958 1.28614 9.74357 -0.00442877 -0.00733038 0.00580322
523 -68 22.4177 1011.71 49.3911 64386 27.0974 1011.16 17.4496 38.6228 383790 $GNGGA,195138.000,5246.5559,N,00026.3608,E,1,8,1.28,34.3,M,47.0,M,,*71 $GNRMC,195138.000,A,5246.5559,N,00026.3608,E,0.63,277.36,070325,,,A*76 -0.476172 1.30648 9.74717 -0.00458149 -0.0056505 0.00626137
524 -67 22.4202 1011.71 49.3854 64289 .17 17.3439 38.5797 756 38.6439 387120 $GNGGA,195139.000,5246.5558,N,00026.3605,E,1,9,1.15,34.3,M,47.0,M,,*73 $GNRMC,195139.000,A,5246.5558,N,00026.3605,E,0.39,277.36,070325,,,A*74 -0.463011 1.31007 9.74238 -0.00351247 -0.00641408 0.00641408
525 -68 22.4198 1011.7 49.3491 64144 27.2003 1011.17 17.365 38.5451 384673 $GNGGA,195141.000,5246.5560,N,00026.3609,E,1,9,1.15,34.3,M,47.0,M,,*7B $GNRMC,195141.000,A,5246.5560,N,00026.3609,E,1.16,64.40,070325,,,A*41 -0.480958 1.31246 9.74357 -0.00488692 -0.0074831 0.00610865
526 -68 22.4214 1011.7 49.3493 64289 27.1654 1011.16 17.439 38.5237 385115 $GNGGA,195142.000,5246.5563,N,00026.3613,E,1,8,1.28,34.3,M,47.0,M,,*7F $GNRMC,195142.000,A,5246.5563,N,00026.3613,E,1.30,41.24,070325,,,A*4B -0.485743 1.30409 9.74717 -0.00397062 -0.00641408 0.00671952
527 -68 22.4243 1011.71 49.3497 64337 27.1446 1011.16 17.3862 38.5215 384452 $GNGGA,195143.000,5246.5563,N,00026.3614,E,1,9,1.15,34.2,M,47.0,M,,*77 $GNRMC,195143.000,A,5246.5563,N,00026.3614,E,0.73,8.91,070325,,,A*78 -0.464208 1.29332 9.73759 -0.00519235 -0.00763582 0.00671952
529 -68 22.4255 1011.71 49.3558 64240 27.1245 1011.18 17.2699 38.537 381820 $GNGGA,195146.000,5246.5564,N,00026.3615,E,1,8,1.28,34.2,M,47.0,M,,*7B $GNRMC,195146.000,A,5246.5564,N,00026.3615,E,0.32,8.91,070325,,,A*7E -0.474975 1.30528 9.7364 -0.00335976 -0.00610865 0.0056505
530 -67 22.4271 1011.72 49.35 64581 27.1249 1011.17 17.3227 38.5548 384010 $GNGGA,195147.000,5246.5563,N,00026.3615,E,1,9,1.15,34.2,M,47.0,M,,*72 $GNRMC,195147.000,A,5246.5563,N,00026.3615,E,0.42,8.91,070325,,,A*7F -0.482154 1.28973 9.74836 -0.00442877 -0.00702495 0.00641408
531 -67 22.4292 1011.72 49.3322 64581 27.1198 1011.16 17.3967 38.5661 383131 $GNGGA,195148.000,5246.5563,N,00026.3614,E,1,9,1.15,34.3,M,47.0,M,,*7D $GNRMC,195148.000,A,5246.5563,N,00026.3614,E,0.32,8.91,070325,,,A*76 -0.476172 1.30409 9.74238 -0.00320704 -0.00626137 0.00610865
532 -68 22.4308 1011.71 49.3263 64434 6 17.439 38.5839 7.3862 38.5724 383131 $GNGGA,195149.000,5246.5563,N,00026.3614,E,1,8,1.28,34.3,M,47.0,M,,*73 $GNRMC,195149.000,A,5246.5563,N,00026.3614,E,0.15,8.91,070325,,,A*72 -0.474975 1.30648 9.74357 -0.00366519 -0.00626137 0.0065668
533 -68 22.4292 1011.71 49.3201 64096 27.1249 1011.17 17.3545 38.608 383351 $GNGGA,195151.000,5246.5563,N,00026.3613,E,1,9,1.15,34.4,M,47.0,M,,*75 $GNRMC,195151.000,A,5246.5563,N,00026.3613,E,0.16,8.91,070325,,,A*7F -0.478565 1.30887 9.74238 -0.00473421 -0.00687223 0.00595593
534 -68 22.4302 1011.72 49.3081 64096 27.1234 1011.17 17.365 38.6196 383131 $GNGGA,195152.000,5246.5563,N,00026.3614,E,1,9,1.15,34.3,M,47.0,M,,*76 $GNRMC,195152.000,A,5246.5563,N,00026.3614,E,0.39,8.91,070325,,,A*76 -0.480958 1.31007 9.74597 -0.00519235 -0.00717767 0.0065668
535 -67 22.4308 1011.72 49.2901 64096 27.123 1011.16 17.3756 38.6137 383131 $GNGGA,195153.000,5246.5563,N,00026.3615,E,1,9,1.15,34.3,M,47.0,M,,*76 $GNRMC,195153.000,A,5246.5563,N,00026.3615,E,0.26,8.91,070325,,,A*78 -0.472583 1.30768 9.74477 -0.00305432 -0.00519235 0.00641408
536 -66 22.4318 1011.71 49.2722 64386 27.2571 1011.17 17.3227 38.6516 387344 $GNGGA,195154.000,5246.5565,N,00026.3618,E,1,9,1.15,34.3,M,47.0,M,,*7A $GNRMC,195154.000,A,5246.5565,N,00026.3618,E,0.55,8.91,070325,,,A*70 -0.472583 1.29811 9.74118 -0.00458149 -0.0065668 0.00641408
537 -68 22.4333 1011.71 49.2663 64483 18 17.2805 38.8 17.2699 38.6155 384894 $GNGGA,195155.000,5246.5567,N,00026.3619,E,1,9,1.15,34.3,M,47.0,M,,*78 $GNRMC,195155.000,A,5246.5567,N,00026.3619,E,0.54,8.91,070325,,,A*73 -0.476172 1.30648 9.74956 -0.00458149 -0.00763582 0.00580322
538 -69 22.4302 1011.7 49.2538 64337 27.2021 1011.17 17.3122 38.5925 384010 $GNGGA,195157.000,5246.5567,N,00026.3619,E,1,9,1.15,34.3,M,47.0,M,,*7A $GNRMC,195157.000,A,5246.5567,N,00026.3619,E,0.30,8.91,070325,,,A*73 -0.472583 1.3005 9.73281 -0.00473421 -0.0065668 0.00595593
539 -69 22.4316 1011.7 49.2359 64048 27.1825 1011.17 17.3545 38.5846 383570 $GNGGA,195158.000,5246.5568,N,00026.3617,E,1,8,1.28,34.3,M,47.0,M,,*7B $GNRMC,195158.000,A,5246.5568,N,00026.3617,E,0.25,8.91,070325,,,A*79 -0.485743 1.30648 9.75076 -0.00366519 -0.00687223 0.00580322
540 -69 22.4327 1011.7 49.224 64532 27.1657 1011.17 17.3439 38.5887 385115 $GNGGA,195159.000,5246.5568,N,00026.3619,E,1,9,1.15,34.3,M,47.0,M,,*7B $GNRMC,195159.000,A,5246.5568,N,00026.3619,E,0.14,8.91,070325,,,A*74 -0.48335 1.30289 9.74477 -0.00427606 -0.00733038 0.00595593
541 -69 22.4347 1011.7 49.2484 64434 6 17.4073 11.17 17.3439 38.5878 384673 $GNGGA,195200.000,5246.5570,N,00026.3621,E,1,9,1.15,34.3,M,47.0,M,,*76 $GNRMC,195200.000,A,5246.5570,N,00026.3621,E,0.30,8.91,070325,,,A*7F -0.478565 1.3005 9.74357 -0.00412334 -0.00733038 0.00626137
542 -69 22.4321 1011.69 49.236 64000 27.1478 1011.16 17.439 38.6045 384010 $GNGGA,195202.000,5246.5569,N,00026.3622,E,1,9,1.15,34.2,M,47.0,M,,*7E $GNRMC,195202.000,A,5246.5569,N,00026.3622,E,0.28,8.91,070325,,,A*7F -0.47019 1.3005 9.75315 -0.00381791 -0.00687223 0.0056505
543 -67 22.4333 1011.69 49.2241 64630 27.1468 1011.15 17.4707 38.5867 384894 $GNGGA,195203.000,5246.5569,N,00026.3620,E,1,9,1.15,34.2,M,47.0,M,,*7D $GNRMC,195203.000,A,5246.5569,N,00026.3620,E,0.08,8.91,070325,,,A*7E -0.472583 1.29212 9.74118 -0.0
544 -68 22.4362 1011.7 49.2606 64289 27.148 1011.17 17.3756 38.5809 384010 $GNGGA,195204.000,5246.5569,N,00026.3621,E,1,9,1.15,34.2,M,47.0,M,,*7B $GNRMC,195204.000,A,5246.5569,N,00026.3621,E,0.10,8.91,070325,,,A*71 -0.479761 1.30289 9.74717 -0.00335976 -0.00580322 0.00610865
545 -68 22.4378 1011.7 49.2608 64581 16 17.4073 1.17 17.3439 38.5866 384231 $GNGGA,195205.000,5246.5569,N,00026.3621,E,1,8,1.28,34.2,M,47.0,M,,*75 $GNRMC,195205.000,A,5246.5569,N,00026.3621,E,0.12,8.91,070325,,,A*72 -0.471386 1.30409 9.74238 -0.00427606 -0.00702495 0.00503964
546 -68 22.4374 1011.71 49.2608 64240 27.1489 1011.17 17.3333 38.5751 384010 $GNGGA,195207.000,5246.5568,N,00026.3617,E,1,8,1.28,34.2,M,47.0,M,,*73 $GNRMC,195207.000,A,5246.5568,N,00026.3617,E,0.31,8.91,070325,,,A*75 -0.464208 1.30289 9.74118 -0.00458149 -0.00687223 0.00687223
547 -68 22.44 1011.71 49.2611 64144 27.1499 1011.16 17.2593 38.6032 386226 $GNGGA,195208.000,5246.5568,N,00026.3617,E,1,9,1.15,34.2,M,47.0,M,,*73 $GNRMC,195208.000,A,5246.5568,N,00026.3617,E,0.14,8.91,070325,,,A*7D -0.474975 1.3005 9.74238 -0.00366519 -0.00717767 0.00580322
548 -68 22.4429 1011.71 49.2675 64630 27.3103 1011.17 17.3122 38.5509 386896 $GNGGA,195209.000,5246.5569,N,00026.3616,E,1,9,1.15,34.1,M,47.0,M,,*71 $GNRMC,195209.000,A,5246.5569,N,00026.3616,E,0.38,8.91,070325,,,A*72 -0.473779 1.3005 9.74477 -0.00381791 -0.00687223 0.00687223
549 -69 22.445 1011.71 49.2738 64630 27.2575 1011.16 17.3862 38.5275 384673 $GNGGA,195210.000,5246.5571,N,00026.3617,E,1,9,1.15,34.1,M,47.0,M,,*71 $GNRMC,195210.000,A,5246.5571,N,00026.3617,E,0.58,8.91,070325,,,A*74 -0.474975 1.29212 9.74357 -0.00458149 -0.00610865 0.00595593
550 -68 22.447 1011.72 49.2801 64630 6 17.3862 38.4978 38333 38.5001 383131 $GNGGA,195211.000,5246.5570,N,00026.3616,E,1,8,1.28,34.1,M,47.0,M,,*7F $GNRMC,195211.000,A,5246.5570,N,00026.3616,E,0.42,8.91,070325,,,A*7E -0.47019 1.29571 9.74238 -0.00397062 -0.00641408 0.00626137
551 -68 22.4462 1011.71 49.292 64096 27.1861 1011.17 17.365 38.4845 380301 $GNGGA,195213.000,5246.5574,N,00026.3618,E,1,8,1.28,34.2,M,47.0,M,,*74 $GNRMC,195213.000,A,5246.5574,N,00026.3618,E,0.43,19.23,070325,,,A*4E -0.47019 1.29212 9.74597 -0.00412334 -0.00610865 0.00595593
552 -68 22.4491 1011.71 49.3044 64581 27.1786 1011.16 17.3862 38.4955 383790 $GNGGA,195214.000,5246.5573,N,00026.3617,E,1,8,1.28,34.3,M,47.0,M,,*7A $GNRMC,195214.000,A,5246.5573,N,00026.3617,E,0.07,19.23,070325,,,A*41 -0.48335 1.30648 9.74357 -0.00442877 -0.00626137 0.00503964
553 -68 22.4513 1011.71 49.3047 64532 27.1739 1011.17 17.3756 38.5068 384673 $GNGGA,195215.000,5246.5574,N,00026.3617,E,1,8,1.28,34.3,M,47.0,M,,*7C $GNRMC,195215.000,A,5246.5574,N,00026.3617,E,0.60,50.37,070325,,,A*4E -0.480958 1.29332 9.75195 -0.00473421 -0.0074831 0.00580322
554 -69 22.4532 1011.71 49.311 64630 18 17.2805 38.8 17.2488 38.5068 383351 $GNGGA,195216.000,5246.5577,N,00026.3621,E,1,8,1.28,34.3,M,47.0,M,,*79 $GNRMC,195216.000,A,5246.5577,N,00026.3621,E,1.43,21.84,070325,,,A*45 -0.48335 1.30528 9.73999 -0.00351247 -0.00717767 0.00503964
555 -69 22.4521 1011.72 49.2988 64144 27.1704 1011.17 17.3439 38.5065 384010 $GNGGA,195218.000,5246.5577,N,00026.3621,E,1,9,1.15,34.5,M,47.0,M,,*7E $GNRMC,195218.000,A,5246.5577,N,00026.3621,E,0.18,21.84,070325,,,A*44 -0.48694 1.29212 9.74597 -0.00366519 -0.00671952 0.00626137
557 -69 22.4552 1011.71 49.3052 64289 27.1728 1011.17 17.3016 38.5244 384452 $GNGGA,195220.000,5246.5579,N,00026.3625,E,1,9,1.15,34.5,M,47.0,M,,*7F $GNRMC,195220.000,A,5246.5579,N,00026.3625,E,1.25,27.90,070325,,,A*49 -0.480958 1.31127 9.73759 -0.00412334 -0.00641408 0.00549779
558 -69 22.4569 1011.72 49.2692 64386 .17 17.3227 .17 17.3227 38.5182 384010 $GNGGA,195221.000,5246.5580,N,00026.3625,E,1,8,1.28,34.5,M,47.0,M,,*77 $GNRMC,195221.000,A,5246.5580,N,00026.3625,E,0.40,27.90,070325,,,A*4C -0.471386 1.30289 9.74836 -0.00412334 -0.00549779 0.00626137
559 -69 22.4476 1011.71 49.2741 63241 27.3195 1011.17 17.3227 38.5459 384894 $GNGGA,195223.000,5246.5581,N,00026.3625,E,1,8,1.28,34.5,M,47.0,M,,*74 $GNRMC,195223.000,A,5246.5581,N,00026.3625,E,0.20,27.90,070325,,,A*49 -0.477368 1.3005 9.74717 -0.00381791 -0.00717767 0.00580322
560 -82 22.4491 1011.71 49.2682 63760 27.3267 1011.17 17.3545 38.5112 385781 $GNGGA,195224.000,5246.5582,N,00026.3625,E,1,8,1.28,34.5,M,47.0,M,,*70 $GNRMC,195224.000,A,5246.5582,N,00026.3625,E,0.57,27.90,070325,,,A*4D -0.485743 1.30528 9.74238 -0.00381791 -0.00671952 0.00626137
561 -77 22.4527 1011.71 49.2506 64192 27.2841 1011.17 17.3227 38.4654 384452 $GNGGA,195225.000,5246.5581,N,00026.3625,E,1,9,1.26,34.5,M,47.0,M,,*7D $GNRMC,195225.000,A,5246.5581,N,00026.3625,E,0.43,27.90,070325,,,A*4A -0.480958 1.3005 9.7364 -0.00442877 -0.00702495 0.00610865
562 -80 22.4548 1011.72 49.2448 64532 17 17.3122 38.4475 3833518.4555 384452 $GNGGA,195226.000,5246.5581,N,00026.3626,E,1,9,1.26,34.5,M,47.0,M,,*7D $GNRMC,195226.000,A,5246.5581,N,00026.3626,E,0.24,27.90,070325,,,A*4B -0.494118 1.3005 9.74238 -0.00488692 -0.00733038 0.00580322
563 -67 22.4544 1011.72 49.2508 64386 27.2087 1011.18 17.2593 38.4456 385337 $GNGGA,195228.000,5246.5580,N,00026.3625,E,1,9,1.26,34.5,M,47.0,M,,*71 $GNRMC,195228.000,A,5246.5580,N,00026.3625,E,0.16,27.90,070325,,,A*46 -0.474975 1.3017 9.73879 -0.00427606 -0.00626137 0.00702495
564 -69 22.4568 1011.72 49.227 64483 27.2034 1011.17 17.3439 38.445 384894 $GNGGA,195229.000,5246.5581,N,00026.3626,E,1,9,1.26,34.5,M,47.0,M,,*72 $GNRMC,195229.000,A,5246.5581,N,00026.3626,E,0.04,27.90,070325,,,A*46 -0.484547 1.30768 9.74238 -0.00427606 -0.00733038 0.00595593
565 -68 22.4579 1011.71 49.2272 64386 27.196 1011.17 17.3227 38.4501 385781 $GNGGA,195230.000,5246.5582,N,00026.3627,E,1,9,1.26,34.5,M,47.0,M,,*78 $GNRMC,195230.000,A,5246.5582,N,00026.3627,E,0.18,27.90,070325,,,A*41 -0.482154 1.29452 9.74717 -0.00442877 -0.00717767 0.00595593
566 -68 22.4609 1011.71 49.2094 64386 7 17.3227 38.4556.3862 38.4501 384673 $GNGGA,195231.000,5246.5583,N,00026.3627,E,1,9,1.26,34.5,M,47.0,M,,*78 $GNRMC,195231.000,A,5246.5583,N,00026.3627,E,0.21,27.90,070325,,,A*4B -0.47019 1.30648 9.73999 -0.00397062 -0.00687223 0.00641408
567 -69 22.4601 1011.71 49.1912 64289 27.1945 1011.17 17.3227 38.4559 386004 $GNGGA,195233.000,5246.5583,N,00026.3630,E,1,9,1.26,34.5,M,47.0,M,,*7C $GNRMC,195233.000,A,5246.5583,N,00026.3630,E,0.21,27.90,070325,,,A*4F -0.478565 1.30768 9.74717 -0.00473421 -0.00717767 0.0056505
568 -69 22.4611 1011.71 49.1732 64483 27.1927 1011.17 17.3227 38.4557 382474 $GNGGA,195234.000,5246.5582,N,00026.3628,E,1,9,1.26,34.5,M,47.0,M,,*73 $GNRMC,195234.000,A,5246.5582,N,00026.3628,E,0.06,27.90,070325,,,A*45 -0.476172 1.29691 9.74477 -0.00397062 -0.00794125 0.00610865
569 -69 22.4634 1011.72 49.1856 64096 27.1913 1011.18 17.2805 38.4614 383570 $GNGGA,195235.000,5246.5583,N,00026.3630,E,1,9,1.26,34.5,M,47.0,M,,*7A $GNRMC,195235.000,A,5246.5583,N,00026.3630,E,0.13,27.90,070325,,,A*48 -0.477368 1.30528 9.74597 -0.00458149 -0.00763582 0.00626137
570 -69 22.4646 1011.72 49.1435 64144 27.187 1011.17 17.3122 38.4787 385781 $GNGGA,195236.000,5246.5583,N,00026.3630,E,1,9,1.26,34.5,M,47.0,M,,*79 $GNRMC,195236.000,A,5246.5583,N,00026.3630,E,0.03,27.90,070325,,,A*4A -0.464208 1.29452 9.74357 -0.00488692 -0.0065668 0.00687223
571 -69 22.4554 1011.71 49.1122 63288 27.3308 1011.18 17.2276 38.5117 386226 $GNGGA,195238.000,5246.5583,N,00026.3631,E,1,9,1.26,34.5,M,47.0,M,,*76 $GNRMC,195238.000,A,5246.5583,N,00026.3631,E,0.12,27.90,070325,,,A*45 -0.485743 1.3005 9.73759 -0.00473421 -0.00687223 0.00610865
572 -69 22.4558 1011.71 49.1243 63618 27.3403 1011.18 17.2699 38.4832 384452 $GNGGA,195239.000,5246.5583,N,00026.3630,E,1,9,1.26,34.5,M,47.0,M,,*76 $GNRMC,195239.000,A,5246.5583,N,00026.3630,E,0.03,27.90,070325,,,A*45 -0.482154 1.30768 9.74597 -0.00412334 -0.0074831 0.00641408
573 -69 22.4579 1011.71 49.1307 64289 27.2948 1011.18 17.2276 38.4665 384673 $GNGGA,195240.000,5246.5583,N,00026.3630,E,1,9,1.26,34.5,M,47.0,M,,*78 $GNRMC,195240.000,A,5246.5583,N,00026.3630,E,0.03,27.90,070325,,,A*4B -0.476172 1.2993 9.74238 -0.00442877 -0.00687223 0.00626137
574 -69 22.4609 1011.72 49.131 64289 .18 162 1011.17 17.3016 38.4447 384452 $GNGGA,195241.000,5246.5584,N,00026.3630,E,1,9,1.26,34.5,M,47.0,M,,*7E $GNRMC,195241.000,A,5246.5584,N,00026.3630,E,0.12,27.90,070325,,,A*4D -0.491725 1.30648 9.74597 -0.00412334 -0.00610865 0.00610865
575 -69 22.4589 1011.72 49.1308 64000 27.2193 1011.19 17.1853 38.4467 385781 $GNGGA,195243.000,5246.5584,N,00026.3628,E,1,9,1.26,34.5,M,47.0,M,,*75 $GNRMC,195243.000,A,5246.5584,N,00026.3628,E,0.39,27.90,070325,,,A*4F -0.484547 1.29332 9.74477 -0.00488692 -0.00626137 0.00595593
576 -70 22.4601 1011.72 49.143 64337 27.2113 1011.19 17.1853 38.4518 386673 $GNGGA,195244.000,5246.5584,N,00026.3627,E,1,9,1.26,34.5,M,47.0,M,,*7D $GNRMC,195244.000,A,5246.5584,N,00026.3627,E,0.31,27.90,070325,,,A*4F -0.474975 1.30768 9.7352 -0.00458149 -0.00717767 0.00641408
577 -71 22.4626 1011.72 49.1613 64386 27.2069 1011.19 17.1748 38.4454 384894 $GNGGA,195245.000,5246.5584,N,00026.3625,E,1,9,1.26,34.5,M,47.0,M,,*7E $GNRMC,195245.000,A,5246.5584,N,00026.3625,E,0.33,27.90,070325,,,A*4E -0.48335 1.2993 9.74238 -0.00366519 -0.00733038 0.00595593
578 -79 22.4646 1011.72 49.1556 64483 19 17.1536 38. 17.0902 38.4571 384452 $GNGGA,195246.000,5246.5583,N,00026.3624,E,1,9,1.26,34.5,M,47.0,M,,*7B $GNRMC,195246.000,A,5246.5583,N,00026.3624,E,0.24,27.90,070325,,,A*4D -0.488136 1.30648 9.77827 -0.00610865 -0.00626137 0.00626137
579 -78 22.464 1011.73 49.1615 64048 27.2077 1011.19 17.1536 38.4455 385115 $GNGGA,195248.000,5246.5585,N,00026.3627,E,1,9,1.26,34.5,M,47.0,M,,*70 $GNRMC,195248.000,A,5246.5585,N,00026.3627,E,0.24,27.90,070325,,,A*46 -0.466601 1.30289 9.74597 -0.00458149 -0.00702495 0.0065668
580 -80 22.4665 1011.72 49.1618 64096 27.2093 1011.19 17.1431 38.4633 384452 $GNGGA,195249.000,5246.5586,N,00026.3628,E,1,9,1.26,34.5,M,47.0,M,,*7D $GNRMC,195249.000,A,5246.5586,N,00026.3628,E,0.29,27.90,070325,,,A*46 -0.476172 1.30768 9.74597 -0.00427606 -0.00702495 0.00671952
581 -78 22.4677 1011.73 49.168 64289 27.2071 1011.19 17.1959 38.4513 385781 $GNGGA,195250.000,5246.5585,N,00026.3628,E,1,9,1.26,34.5,M,47.0,M,,*76 $GNRMC,195250.000,A,5246.5585,N,00026.3628,E,0.49,27.90,0703
